{
    "records": [
        {
            "attributes": {
                "type": "Account",
                "referenceId": "AccountRef1"
            },
            "Name": "Edge Communications",
            "AccountNumber": "CD451796",
            "Active__c": "Yes",
            "AnnualRevenue": 139000000,
            "BillingAddress": {
                "city": "Austin",
                "country": null,
                "geocodeAccuracy": null,
                "latitude": null,
                "longitude": null,
                "postalCode": null,
                "state": "TX",
                "street": "312 Constitution Place\r\nAustin, TX 78767\r\nUSA"
            },
            "BillingCity": "Austin",
            "CustomerPriority__c": "Medium"
        },
        {
            "attributes": {
                "type": "Account",
                "referenceId": "AccountRef2"
            },
            "Name": "Burlington Textiles Corp of America",
            "AccountNumber": "CD656092",
            "AnnualRevenue": 350000000,
            "BillingAddress": {
                "city": "Burlington",
                "country": "USA",
                "geocodeAccuracy": null,
                "latitude": null,
                "longitude": null,
                "postalCode": "27215",
                "state": "NC",
                "street": "525 S. Lexington Ave"
            },
            "BillingCity": "Burlington",
            "BillingCountry": "USA",
            "BillingPostalCode": "27215"
        },
        {
            "attributes": {
                "type": "Account",
                "referenceId": "AccountRef3"
            },
            "Name": "Pyramid Construction Inc.",
            "AccountNumber": "CC213425",
            "Active__c": "Yes",
            "AnnualRevenue": 950000000,
            "BillingAddress": {
                "city": "Paris",
                "country": "France",
                "geocodeAccuracy": null,
                "latitude": null,
                "longitude": null,
                "postalCode": "75251",
                "state": null,
                "street": "2 Place Jussieu"
            },
            "BillingCity": "Paris",
            "BillingCountry": "France",
            "BillingPostalCode": "75251"
        },
        {
            "attributes": {
                "type": "Account",
                "referenceId": "AccountRef4"
            },
            "Name": "Dickenson plc",
            "AccountNumber": "CC634267",
            "Active__c": "Yes",
            "AnnualRevenue": 50000000,
            "BillingAddress": {
                "city": "Lawrence",
                "country": "USA",
                "geocodeAccuracy": null,
                "latitude": null,
                "longitude": null,
                "postalCode": "66045",
                "state": "KS",
                "street": "1301 Hoch Drive"
            },
            "BillingCity": "Lawrence",
            "BillingCountry": "USA",
            "BillingPostalCode": "66045",
            "CustomerPriority__c": "Low"
        },
        {
            "attributes": {
                "type": "Account",
                "referenceId": "AccountRef5"
            },
            "Name": "Grand Hotels & Resorts Ltd",
            "AccountNumber": "CD439877",
            "Active__c": "Yes",
            "AnnualRevenue": 500000000,
            "BillingAddress": {
                "city": "Chicago",
                "country": null,
                "geocodeAccuracy": null,
                "latitude": null,
                "longitude": null,
                "postalCode": null,
                "state": "IL",
                "street": "2334 N. Michigan Avenue, Suite 1500\nChicago, IL 60601, USA"
            },
            "BillingCity": "Chicago",
            "CustomerPriority__c": "High"
        },
        {
            "attributes": {
                "type": "Account",
                "referenceId": "AccountRef6"
            },
            "Name": "United Oil & Gas Corp.",
            "AccountNumber": "CD355118",
            "Active__c": "Yes",
            "AnnualRevenue": 5600000000,
            "BillingAddress": {
                "city": "New York",
                "country": null,
                "geocodeAccuracy": null,
                "latitude": null,
                "longitude": null,
                "postalCode": null,
                "state": "NY",
                "street": "1301 Avenue of the Americas \nNew York, NY 10019\nUSA"
            },
            "BillingCity": "New York",
            "CustomerPriority__c": "High"
        },
        {
            "attributes": {
                "type": "Account",
                "referenceId": "AccountRef7"
            },
            "Name": "Express Logistics and Transport",
            "AccountNumber": "CC947211",
            "Active__c": "Yes",
            "AnnualRevenue": 950000000,
            "BillingAddress": {
                "city": "Portland",
                "country": null,
                "geocodeAccuracy": null,
                "latitude": null,
                "longitude": null,
                "postalCode": null,
                "state": "OR",
                "street": "620 SW 5th Avenue Suite 400\nPortland, Oregon 97204\nUnited States"
            },
            "BillingCity": "Portland",
            "CustomerPriority__c": "Medium"
        },
        {
            "attributes": {
                "type": "Account",
                "referenceId": "AccountRef8"
            },
            "Name": "University of Arizona",
            "AccountNumber": "CD736025",
            "Active__c": "Yes",
            "BillingAddress": {
                "city": "Tucson",
                "country": null,
                "geocodeAccuracy": null,
                "latitude": null,
                "longitude": null,
                "postalCode": null,
                "state": "AZ",
                "street": "888 N Euclid \nHallis Center, Room 501\nTucson, AZ 85721\nUnited States"
            },
            "BillingCity": "Tucson",
            "CustomerPriority__c": "Medium"
        },
        {
            "attributes": {
                "type": "Account",
                "referenceId": "AccountRef9"
            },
            "Name": "United Oil & Gas, UK",
            "AccountNumber": "CD355119-A",
            "Active__c": "Yes",
            "BillingAddress": {
                "city": null,
                "country": null,
                "geocodeAccuracy": null,
                "latitude": null,
                "longitude": null,
                "postalCode": null,
                "state": "UK",
                "street": "Kings Park, 17th Avenue, Team Valley Trading Estate,\nGateshead, Tyne and Wear NE26 3HS\nUnited Kingdom"
            },
            "CustomerPriority__c": "High"
        },
        {
            "attributes": {
                "type": "Account",
                "referenceId": "AccountRef10"
            },
            "Name": "United Oil & Gas, Singapore",
            "AccountNumber": "CD355120-B",
            "Active__c": "Yes",
            "BillingAddress": {
                "city": "Singapore",
                "country": null,
                "geocodeAccuracy": null,
                "latitude": null,
                "longitude": null,
                "postalCode": null,
                "state": "Singapore",
                "street": "9 Tagore Lane\nSingapore, Singapore 787472\nSingapore"
            },
            "BillingCity": "Singapore",
            "CustomerPriority__c": "High"
        },
        {
            "attributes": {
                "type": "Account",
                "referenceId": "AccountRef11"
            },
            "Name": "GenePoint",
            "AccountNumber": "CC978213",
            "Active__c": "Yes",
            "AnnualRevenue": 30000000,
            "BillingAddress": {
                "city": "Mountain View",
                "country": null,
                "geocodeAccuracy": null,
                "latitude": null,
                "longitude": null,
                "postalCode": null,
                "state": "CA",
                "street": "345 Shoreline Park\nMountain View, CA 94043\nUSA"
            },
            "BillingCity": "Mountain View",
            "CustomerPriority__c": "Low"
        },
        {
            "attributes": {
                "type": "Account",
                "referenceId": "AccountRef12"
            },
            "Name": "sForce",
            "BillingAddress": {
                "city": "San Francisco",
                "country": "US",
                "geocodeAccuracy": null,
                "latitude": null,
                "longitude": null,
                "postalCode": "94087",
                "state": "CA",
                "street": "The Landmark @ One Market"
            },
            "BillingCity": "San Francisco",
            "BillingCountry": "US",
            "BillingPostalCode": "94087"
        }
    ]
}